,City,Cloudiness,Country,Date,Humiditiy,Lat,Lng,Max Temp,Wind Speed
0,tessalit,77,ML,1570474326,10,20.2,1.01,96.89,8.9
1,ushuaia,75,AR,1570474326,77,-54.81,-68.31,32.0,39.15
2,beringovskiy,57,RU,1570474327,93,63.05,179.32,34.61,5.17
3,hami,71,CN,1570474327,15,42.84,93.51,58.73,3.11
4,kodiak,1,US,1570474327,28,39.95,-94.76,71.6,4.7
5,rikitea,100,PF,1570474327,93,-23.12,-134.97,70.79,11.86
6,san patricio,32,PY,1570474328,41,-26.98,-56.83,81.23,4.36
7,carnarvon,2,ZA,1570474328,31,-30.97,22.13,59.81,10.07
8,albany,90,US,1570474152,82,42.65,-73.75,60.8,3.36
9,busselton,100,AU,1570474328,51,-33.64,115.35,55.0,21.12
10,inhambane,0,MZ,1570474329,78,-23.87,35.38,71.51,11.74
11,livingstone,12,ZW,1570474329,23,-17.85,25.86,78.71,6.82
12,butaritari,0,KI,1570474329,69,3.07,172.79,84.29,7.43
13,lorengau,8,PG,1570474329,85,-2.02,147.27,79.07,5.79
14,mataura,100,NZ,1570474330,91,-46.19,168.86,51.01,5.99
15,bredasdorp,50,ZA,1570474330,72,-34.53,20.04,62.01,17.22
16,esperance,55,AU,1570474117,87,-33.86,121.89,46.4,8.05
17,ponta delgada,75,PT,1570473921,88,37.73,-25.67,71.6,12.75
18,yellowknife,75,CA,1570473919,55,62.45,-114.38,32.0,20.8
19,jamestown,48,AU,1570473651,94,-33.21,138.6,41.99,10.09
20,melilla,90,EC,1570474118,83,-0.8,-80.23,75.2,13.87
21,cape town,20,ZA,1570473965,82,-33.93,18.42,63.0,11.41
22,zilair,16,RU,1570474118,37,52.23,57.44,52.43,11.18
23,tazovskiy,98,RU,1570474119,96,67.47,78.7,34.79,11.25
24,avera,40,US,1570474119,48,33.19,-82.53,87.8,6.93
25,saskylakh,97,RU,1570474119,96,71.97,114.09,17.51,8.25
26,hermanus,64,ZA,1570473918,86,-34.42,19.24,62.01,5.99
27,shingu,37,JP,1570474120,97,33.72,135.99,61.61,4.21
28,saldanha,81,PT,1570474120,26,41.42,-6.55,72.23,2.46
29,messina,40,IT,1570473956,72,38.19,15.55,68.0,6.93
30,viedma,0,AR,1570474120,29,-40.81,-62.99,60.89,20.38
31,punta arenas,40,CL,1570474120,86,-53.16,-70.91,37.4,28.86
32,port elizabeth,1,US,1570474121,51,39.31,-74.98,82.0,8.05
33,masuguru,90,MZ,1570474121,51,-11.38,38.46,81.59,8.39
34,tuktoyaktuk,90,CA,1570474121,86,69.44,-133.03,32.0,23.04
35,castro,75,CL,1570474121,71,-42.48,-73.76,50.0,11.41
36,roald,0,NO,1570474122,75,62.58,6.12,42.01,2.24
37,flinders,18,AU,1570474122,100,-34.58,150.85,61.0,3.76
38,aksay,97,KZ,1570474122,66,51.17,53.01,53.33,17.07
39,evensk,95,RU,1570474122,53,61.92,159.24,22.37,13.13
40,lebu,75,ET,1570474123,72,8.96,38.73,66.2,4.7
41,vardo,75,US,1570474123,73,39.62,-77.74,77.0,8.05
42,puerto ayora,20,EC,1570473917,60,-0.74,-90.35,75.2,23.04
43,kununurra,0,AU,1570474123,88,-15.77,128.74,69.8,6.31
44,east london,0,ZA,1570474123,93,-33.02,27.91,60.8,10.29
45,geraldton,75,CA,1570474124,87,49.72,-86.95,46.4,8.05
46,hobyo,93,SO,1570474124,71,5.35,48.53,81.77,16.06
47,vaini,100,IN,1570474124,91,15.34,74.49,75.65,1.01
48,jasper,90,US,1570474125,100,33.83,-87.28,75.0,3.11
49,severo-kurilsk,0,RU,1570474125,90,50.68,156.12,46.85,15.57
50,kapaa,75,US,1570473677,83,22.08,-159.32,78.8,6.93
51,trebinje,0,HR,1570474125,30,42.71,18.35,68.0,9.17
52,hofn,90,IS,1570474126,93,64.25,-15.21,50.0,17.22
53,bluff,0,AU,1570474126,44,-23.58,149.07,69.35,6.04
54,maceio,20,BR,1570474126,62,-9.67,-35.74,84.2,18.34
55,coihaique,75,CL,1570474126,70,-45.58,-72.07,50.0,8.05
56,tyrma,100,RU,1570474127,87,50.04,132.17,41.81,1.57
57,oistins,20,BB,1570474127,70,13.07,-59.53,86.0,28.86
58,haines junction,67,CA,1570474127,81,60.75,-137.51,20.39,8.16
59,provideniya,100,RU,1570474128,99,64.42,-173.23,35.15,3.31
60,ojinaga,75,US,1570474128,44,29.56,-104.41,78.8,6.93
61,kerema,99,PG,1570474128,89,-7.96,145.78,77.27,14.85
62,dukat,94,AL,1570474129,80,40.25,19.57,63.0,1.01
63,bubaque,58,GW,1570474129,72,11.28,-15.83,81.05,8.3
64,quang ngai,47,VN,1570474129,98,15.12,108.8,68.81,1.86
65,torbay,90,CA,1570474129,81,47.66,-52.73,55.99,29.97
66,mount isa,0,AU,1570474130,28,-20.73,139.49,57.2,3.74
67,kolar,40,IN,1570474130,100,13.14,78.13,71.6,2.24
68,victoria,75,BN,1570474130,94,5.28,115.24,77.0,5.3
69,karasjok,75,NO,1570474130,96,69.47,25.52,35.6,9.17
70,kavieng,32,PG,1570474131,72,-2.57,150.8,83.57,5.3
71,guerrero negro,0,MX,1570474131,75,27.97,-114.04,71.51,8.79
72,sheridan,20,US,1570473850,7,39.65,-105.03,72.0,8.05
73,dingle,97,PH,1570474131,89,11.0,122.67,74.03,5.17
74,gryfice,75,PL,1570474132,100,53.91,15.2,48.99,2.24
75,new norfolk,75,AU,1570474132,66,-42.78,147.06,50.0,8.05
76,gushikawa,20,JP,1570474132,83,26.35,127.87,77.0,8.05
77,sapa,20,PH,1570474132,74,14.32,120.76,80.6,7.78
78,san quintin,0,PH,1570474133,85,17.54,120.52,70.79,4.79
79,cayenne,12,GF,1570474133,59,4.94,-52.33,89.6,12.75
80,grafton,7,AU,1570474133,88,-29.69,152.93,62.6,1.12
81,chokurdakh,45,RU,1570474133,91,70.62,147.9,10.85,6.02
82,souillac,90,FR,1570474134,67,45.6,-0.6,62.6,3.36
83,jertih,75,MY,1570474134,94,5.74,102.5,75.2,2.24
84,dikson,10,RU,1570474134,78,73.51,80.55,23.45,11.95
85,mamakan,100,RU,1570474134,97,57.82,114.02,27.41,6.53
86,kruisfontein,0,ZA,1570474135,90,-34.0,24.73,54.59,4.52
87,lithgow,0,AU,1570474135,100,-33.48,150.16,60.01,4.03
88,peniche,0,PT,1570474135,72,39.36,-9.38,73.4,9.17
89,ponta do sol,17,BR,1570474136,43,-20.63,-46.0,84.47,8.46
90,kabare,84,RW,1570474136,93,-1.65,29.38,56.75,2.1
91,qaanaaq,100,GL,1570474136,81,77.48,-69.36,19.67,9.28
92,avarua,96,CK,1570473922,56,-21.21,-159.78,71.6,9.17
93,hasaki,75,JP,1570474136,100,35.73,140.83,66.2,9.17
94,tsabong,0,BW,1570474137,13,-26.02,22.4,70.07,13.38
95,bonfim,64,GY,1570474137,41,3.36,-59.84,94.37,6.8
96,srednekolymsk,63,RU,1570474137,96,67.46,153.71,12.65,5.91
97,awjilah,10,LY,1570474138,32,29.14,21.3,72.23,2.64
98,labuhan,58,ID,1570474138,84,-2.54,115.51,72.23,2.08
99,lasa,20,CY,1570474138,73,34.92,32.53,75.2,5.82
100,cramlington,20,GB,1570474139,87,55.09,-1.59,54.0,8.05
101,shihezi,76,CN,1570474139,28,44.3,86.03,62.15,5.59
102,atuona,18,PF,1570474139,73,-9.8,-139.03,79.07,13.11
103,gemena,61,CD,1570474139,93,3.25,19.78,73.49,0.92
104,iqaluit,90,CA,1570473922,93,63.75,-68.52,37.4,9.01
105,port alfred,37,ZA,1570474140,92,-33.59,26.89,60.01,4.0
106,saraland,40,US,1570474140,58,30.82,-88.07,90.0,6.93
107,nanortalik,100,GL,1570474140,82,60.14,-45.24,39.29,6.93
108,pevek,100,RU,1570474141,80,69.7,170.27,32.63,18.97
109,klaksvik,75,FO,1570474141,93,62.23,-6.59,48.2,18.34
110,byron bay,75,AU,1570474141,94,-28.65,153.62,69.8,10.29
111,zhezkazgan,97,KZ,1570474141,22,47.8,67.71,56.03,3.11
112,troitsko-pechorsk,100,RU,1570474142,93,62.71,56.19,39.11,6.8
113,pangnirtung,75,CA,1570474142,65,66.15,-65.72,41.0,6.93
114,camacha,75,PT,1570474142,68,33.08,-16.33,73.4,10.29
115,maraa,33,BR,1570474142,45,-1.83,-65.37,92.93,3.27
116,ancud,75,CL,1570474143,71,-41.87,-73.83,50.0,11.41
117,la ronge,75,CA,1570474143,53,55.1,-105.3,51.8,6.93
118,okhotsk,100,RU,1570474143,49,59.36,143.24,27.23,6.76
119,juegang,97,CN,1570474143,80,32.31,121.18,62.01,1.01
120,pimenta bueno,2,BR,1570474144,36,-11.68,-61.19,99.05,1.23
121,champerico,75,MX,1570473920,74,16.38,-93.6,80.6,4.7
122,henties bay,0,NA,1570474144,87,-22.12,14.28,63.0,5.99
123,qaqortoq,75,GL,1570474144,52,60.72,-46.03,46.4,11.41
124,newala,39,TZ,1570474145,57,-10.94,39.28,76.55,5.75
125,touros,40,BR,1570474145,58,-5.2,-35.46,82.4,16.11
126,pontian kecil,75,MY,1570474145,94,1.48,103.39,78.8,2.24
127,baruun-urt,0,MN,1570474146,49,46.68,113.28,31.37,9.66
128,nikolskoye,75,RU,1570474146,86,59.7,30.79,36.0,4.47
129,salym,35,RU,1570474146,93,60.06,71.48,46.49,2.35
130,ballina,40,IE,1570474146,87,54.11,-9.15,57.2,11.41
131,beruwala,100,LK,1570474147,75,6.48,79.98,82.13,10.33
132,sept-iles,90,CA,1570474147,81,50.2,-66.38,52.0,5.82
133,naze,75,NG,1570474147,94,5.43,7.07,77.0,5.26
134,rapu-rapu,88,PH,1570474147,87,13.19,124.13,77.27,5.73
135,tiksi,100,RU,1570473729,80,71.64,128.87,23.99,17.13
136,trincomalee,64,LK,1570474148,92,8.58,81.23,75.65,1.88
137,liverpool,0,GB,1570474148,77,53.41,-2.98,59.0,5.82
138,pisco,40,PE,1570474148,30,-13.71,-76.2,71.6,10.29
139,comodoro rivadavia,75,AR,1570474008,25,-45.87,-67.48,62.6,29.97
140,port-gentil,20,GA,1570474149,88,-0.72,8.78,75.2,4.7
141,fortuna,1,US,1570474149,52,40.6,-124.16,66.2,13.6
142,kaitangata,100,NZ,1570474150,71,-46.28,169.85,51.01,1.01
143,akhisar,75,TR,1570474150,62,38.92,27.84,57.2,6.93
144,kazerun,3,IR,1570473943,84,29.62,51.65,74.57,2.46
145,progreso,75,UY,1570474150,53,-34.68,-56.22,71.6,18.34
146,stephenville,90,CA,1570474151,93,48.55,-58.59,51.8,12.75
147,hobart,75,AU,1570474151,66,-42.88,147.33,50.0,8.05
148,faanui,82,PF,1570474151,85,-16.48,-151.75,77.09,20.69
149,cap malheureux,75,MU,1570474151,78,-19.98,57.61,73.4,17.22
150,arraial do cabo,20,BR,1570474152,78,-22.97,-42.02,78.8,13.87
151,constitucion,5,MX,1570474152,27,23.99,-104.67,75.0,16.11
152,upernavik,100,GL,1570474152,78,72.79,-56.15,30.65,10.22
153,ixtapa,5,MX,1570474153,70,20.71,-105.21,90.0,6.93
154,mar del plata,97,AR,1570474153,26,-46.43,-67.52,58.55,27.34
155,kalmunai,58,LK,1570474153,87,7.42,81.82,75.65,1.28
156,gusau,82,NG,1570474154,65,12.17,6.66,81.05,4.65
157,buala,11,SB,1570474154,82,-8.15,159.59,79.97,9.13
158,sorland,75,NO,1570474154,80,67.67,12.69,46.4,6.93
159,ust-kuyga,31,RU,1570474155,77,70.0,135.55,8.33,3.09
160,khatanga,6,RU,1570474155,95,71.98,102.47,18.77,6.96
161,slubice,75,CZ,1570474155,87,48.73,14.32,46.4,3.36
162,hirara,21,JP,1570474155,74,24.8,125.28,79.25,13.82
163,cherskiy,100,RU,1570474155,89,68.75,161.3,23.27,13.24
164,saint george,90,GR,1570474156,93,39.45,22.34,59.0,6.93
165,wanning,75,AT,1570474156,87,48.64,13.53,46.99,3.36
166,lompoc,1,US,1570473974,33,34.64,-120.46,84.0,6.87
167,boddam,85,GB,1570474157,93,57.47,-1.78,50.0,3.36
168,terney,100,RU,1570474157,94,45.05,136.61,45.95,2.19
169,pires do rio,59,BR,1570474157,33,-17.3,-48.28,89.87,3.0
170,saposoa,90,PE,1570474157,88,-6.93,-76.77,78.8,2.57
171,hambantota,75,LK,1570474158,100,6.12,81.12,75.2,2.24
172,tasiilaq,20,GL,1570474158,75,65.61,-37.64,42.8,6.93
173,katsuura,75,JP,1570474158,78,33.93,134.5,75.2,18.34
174,tilichiki,47,RU,1570474158,83,60.47,166.1,24.71,10.96
175,kota kinabalu,75,MY,1570474159,100,5.98,116.07,77.0,6.93
176,port lincoln,4,AU,1570474159,66,-34.72,135.86,52.25,22.37
177,talnakh,75,RU,1570474159,96,69.49,88.39,32.0,4.47
178,la palma,42,CO,1570474159,64,5.36,-74.39,82.67,3.06
179,brae,99,GB,1570474160,93,60.4,-1.35,53.6,24.16
180,cidreira,1,BR,1570474160,65,-30.17,-50.22,71.51,11.36
181,green river,1,US,1570474160,25,41.53,-109.47,60.01,8.05
182,coolum beach,46,AU,1570474160,91,-26.53,153.09,69.01,1.99
183,anadyr,90,RU,1570474161,93,64.73,177.51,39.2,8.95
184,georgetown,20,GY,1570473855,66,6.8,-58.16,87.8,11.41
185,hilo,20,US,1570474161,57,19.71,-155.08,77.0,5.82
186,itarema,50,BR,1570474161,55,-2.92,-39.92,87.17,16.13
187,hithadhoo,15,MV,1570474162,78,-0.6,73.08,82.13,16.91
188,nassjo,0,SE,1570474140,92,57.65,14.7,34.0,6.85
189,sitka,0,US,1570474162,36,37.17,-99.65,66.99,8.99
190,paisley,40,CA,1570474162,62,44.3,-81.27,63.0,11.41
191,airai,46,TL,1570474163,80,-8.93,125.41,68.27,3.44
192,chuy,7,UY,1570474163,64,-33.69,-53.46,68.63,7.36
193,leningradskiy,100,RU,1570474163,96,69.38,178.42,30.29,16.71
194,te anau,99,NZ,1570474163,89,-45.41,167.72,45.77,2.55
195,pochutla,75,MX,1570474164,70,15.74,-96.47,88.0,11.41
196,yefremov,76,RU,1570474164,75,53.14,38.12,36.23,11.18
197,uyar,93,RU,1570474164,94,55.81,94.33,47.75,7.09
198,dakar,40,SN,1570474164,78,14.69,-17.45,84.2,9.17
199,azul,42,AR,1570474165,20,-36.78,-59.86,71.01,15.86
200,clyde river,90,CA,1570474165,92,70.47,-68.59,30.2,14.99
201,lagoa,0,PT,1570473918,68,37.14,-8.45,78.01,4.7
202,mount gambier,40,AU,1570474165,87,-37.83,140.78,44.6,9.17
203,port shepstone,100,ZA,1570474165,89,-30.74,30.45,63.77,18.84
204,smithers,75,CA,1570474166,75,54.78,-127.17,42.8,2.24
205,cranbrook,75,CA,1570474166,50,49.51,-115.76,53.6,16.11
206,aksarka,93,RU,1570474166,84,66.56,67.8,30.83,5.3
207,slavyanka,57,RU,1570474166,96,42.86,131.39,46.85,2.86
208,shumyachi,94,RU,1570474167,81,53.86,32.43,31.01,5.91
209,viana,20,BR,1570473953,65,-20.39,-40.5,82.4,17.22
210,yenagoa,99,NG,1570474167,91,4.92,6.26,76.55,5.35
211,andros town,75,BS,1570474167,83,24.73,-77.79,82.99,9.17
212,sayyan,70,YE,1570474168,70,15.17,44.32,69.89,5.23
213,remetea chioarului,0,RO,1570474168,86,47.53,23.55,39.2,3.36
214,cururupu,72,BR,1570474168,54,-1.82,-44.87,88.43,7.23
215,sao joao da barra,0,BR,1570474169,61,-21.64,-41.05,82.4,23.04
216,daru,100,PG,1570474169,92,-9.07,143.21,74.03,7.67
217,zunyi,74,CN,1570474169,94,27.73,106.92,64.85,2.28
218,narsaq,75,GL,1570474169,52,60.91,-46.05,46.4,11.41
219,amapa,75,HN,1570474170,52,15.09,-87.97,93.0,4.7
220,denpasar,40,ID,1570474170,94,-8.65,115.22,77.0,3.36
221,kutiyana,0,IN,1570474170,72,21.62,69.99,83.75,14.23
222,yarkovo,0,RU,1570474170,93,54.81,82.6,39.2,4.47
223,nuuk,75,GL,1570474171,69,64.17,-51.74,37.4,6.93
224,emerald,0,AU,1570474171,37,-23.53,148.16,73.0,3.36
225,mogok,71,MM,1570474171,85,22.92,96.51,66.83,2.95
226,launceston,75,AU,1570474171,87,-41.43,147.14,46.4,1.83
227,kalaleh,75,IR,1570474172,73,37.38,55.49,75.2,6.93
228,tame,100,CO,1570474172,96,6.46,-71.72,57.29,3.2
229,adrar,0,DZ,1570474172,9,27.87,-0.29,91.4,12.75
230,norman wells,75,CA,1570474173,93,65.28,-126.83,32.0,19.46
231,namibe,61,AO,1570474173,78,-15.19,12.15,69.71,3.11
232,bambous virieux,75,MU,1570474174,78,-20.34,57.76,73.4,17.22
233,xichang,100,CN,1570474174,96,27.88,102.25,53.15,1.3
234,vila,0,IT,1570474174,77,45.18,8.4,63.0,3.36
235,nurota,0,UZ,1570474174,38,40.56,65.69,60.8,4.7
236,cornereva,62,RO,1570474175,70,45.06,22.42,40.37,3.91
237,port hardy,90,CA,1570474175,93,50.7,-127.42,48.2,19.46
238,bethel,90,US,1570474070,86,60.79,-161.76,37.4,12.75
239,alice springs,1,AU,1570474032,37,-23.7,133.88,69.8,11.41
240,barrow,0,AR,1570474175,34,-38.31,-60.23,64.85,16.46
241,puerto narino,75,CO,1570474176,66,-3.77,-70.38,86.0,4.7
242,waitati,100,NZ,1570474137,86,-45.75,170.57,53.01,1.99
243,murgab,0,TM,1570474176,43,37.5,61.97,71.6,4.7
244,port blair,73,IN,1570474176,74,11.67,92.75,82.67,7.56
245,namatanai,77,PG,1570474177,85,-3.66,152.44,78.89,9.48
246,moose factory,75,CA,1570474177,76,51.26,-80.61,50.0,12.75
247,gigmoto,86,PH,1570474177,80,13.78,124.39,81.59,15.1
248,cabo san lucas,5,MX,1570473747,52,22.89,-109.91,95.0,10.29
249,jutai,17,BR,1570474178,67,-1.71,-47.89,87.53,5.26
250,mahanoro,6,MG,1570474178,94,-19.9,48.8,66.29,1.72
251,vestmannaeyjar,75,IS,1570474178,93,63.44,-20.27,51.8,13.87
252,thompson,75,CA,1570474179,60,55.74,-97.86,46.4,8.05
253,zeya,50,RU,1570474179,90,53.74,127.27,27.77,5.06
254,kahului,1,US,1570474042,61,20.89,-156.47,80.01,3.18
255,dunedin,100,NZ,1570474179,86,-45.87,170.5,53.01,1.99
256,robe,91,ET,1570474180,89,7.12,40.01,49.37,3.09
257,saint-joseph,0,FR,1570474180,59,43.56,6.97,68.0,3.36
258,erzin,0,TR,1570474180,94,36.95,36.2,75.99,4.7
259,kiama,43,AU,1570474180,100,-34.67,150.86,61.0,2.77
260,mackay,75,CA,1570474181,65,53.65,-115.58,55.4,4.7
261,easton,20,US,1570474172,47,38.77,-76.08,84.2,8.05
262,kurchum,0,KZ,1570474181,38,48.57,83.65,57.47,4.34
263,bordighera,0,IT,1570474181,52,43.79,7.66,68.0,9.17
264,isangel,40,VU,1570474182,94,-19.55,169.27,68.0,17.69
265,penukonda,97,IN,1570474182,76,14.08,77.6,76.55,2.33
266,novyy urengoy,100,RU,1570474182,81,66.08,76.63,34.61,10.25
267,sao filipe,80,CV,1570474182,81,14.9,-24.5,79.25,8.95
268,sola,3,TZ,1570474183,25,-3.17,33.8,79.61,10.51
269,seoni,0,IN,1570474183,85,22.09,79.55,70.25,7.92
270,solvychegodsk,100,RU,1570474183,95,61.33,46.92,41.63,9.53
271,ngunguru,12,NZ,1570474184,95,-35.62,174.5,50.0,4.0
272,baghpat,0,IN,1570474184,65,28.94,77.22,86.0,6.93
273,coquimbo,0,CL,1570474185,63,-29.95,-71.34,64.4,17.22
274,igunga,59,TZ,1570473983,28,-4.28,33.88,77.45,7.05
275,salto,75,BR,1570474185,51,-23.2,-47.29,80.6,14.99
276,mogzon,78,RU,1570474185,73,51.74,111.97,31.37,8.9
277,ribeira grande,40,PT,1570474186,68,38.52,-28.7,69.8,16.11
278,veraval,90,FR,1570474186,93,49.65,0.71,55.0,14.99
279,tura,99,RU,1570474186,93,64.27,100.22,22.01,8.99
280,saint-philippe,75,CA,1570474186,93,45.36,-73.48,60.8,4.7
281,shibetsu,100,JP,1570474187,86,44.15,142.46,47.93,4.7
282,marystown,68,CA,1570474187,90,47.17,-55.16,52.07,17.49
283,ola,0,RU,1570474187,50,59.58,151.3,26.51,7.0
284,le port,93,FR,1570474187,46,42.87,1.37,63.0,3.0
285,ipixuna,75,BR,1570474188,78,-1.76,-48.8,82.4,10.29
286,amnat charoen,15,TH,1570474188,82,15.86,104.63,77.0,5.75
287,emba,20,CY,1570474188,73,34.81,32.42,75.2,5.82
288,prince rupert,75,CA,1570474189,75,54.32,-130.32,46.4,5.82
289,samarai,100,PG,1570474189,89,-10.62,150.67,71.87,4.97
290,bud,0,NO,1570474189,69,62.91,6.91,41.0,8.05
291,broome,40,GB,1570474189,93,52.47,1.45,57.0,9.17
292,chantada,75,ES,1570474190,83,42.61,-7.77,69.8,1.12
293,kandrian,83,PG,1570474190,95,-6.21,149.55,73.49,5.46
294,bauchi,55,NG,1570474087,71,10.31,9.85,76.91,3.8
295,banda aceh,99,ID,1570474190,72,5.56,95.32,82.13,7.02
296,aklavik,75,CA,1570474191,86,68.22,-135.01,30.2,10.29
297,portland,90,US,1570473707,64,43.66,-70.25,70.0,8.05
298,atar,0,MR,1570474191,10,20.52,-13.05,102.2,12.75
299,iquitos,75,PE,1570474191,74,-3.75,-73.25,84.2,10.29
300,gamba,0,CN,1570474192,65,28.28,88.52,35.69,4.59
301,chalmette,40,US,1570474192,58,29.94,-89.96,91.0,9.17
302,ormara,0,PK,1570474192,62,25.21,64.64,81.41,4.38
303,mahebourg,75,MU,1570474192,78,-20.41,57.7,73.4,17.22
304,sambava,10,MG,1570474193,91,-14.27,50.17,67.91,3.47
305,husavik,44,CA,1570474193,44,50.56,-96.99,61.0,8.99
306,black diamond,75,CA,1570474193,92,50.69,-114.23,62.01,17.22
307,manokwari,21,ID,1570474148,75,-0.87,134.08,72.59,5.75
308,springbok,35,ZA,1570474194,77,-29.67,17.88,57.65,8.19
309,ucluelet,90,CA,1570473987,100,48.94,-125.55,57.2,10.29
310,raudeberg,75,NO,1570474194,43,61.99,5.14,50.0,18.34
311,solnechnyy,100,RU,1570474195,83,50.72,136.64,44.51,4.23
312,neryungri,86,RU,1570474195,97,56.66,124.71,17.33,2.19
313,merauke,100,ID,1570474195,82,-8.49,140.4,78.71,19.6
314,portsmouth,75,GB,1570474195,93,50.8,-1.08,61.0,10.29
315,nicoya,40,CR,1570474196,74,10.15,-85.45,86.0,4.7
316,bend,1,US,1570474108,31,44.06,-121.32,64.99,4.7
317,mount pleasant,90,US,1570474196,64,33.16,-94.97,75.99,6.93
318,robertsport,100,LR,1570474196,88,6.75,-11.37,77.99,6.2
319,harlingen,90,NL,1570473900,87,53.18,5.41,53.6,9.17
320,ilulissat,74,GL,1570474197,54,69.22,-51.1,31.55,7.0
321,bangkalan,45,ID,1570474197,86,-7.05,112.74,72.77,5.01
322,aloleng,0,PH,1570474197,70,16.13,119.78,83.03,3.89
323,santa rosa,75,AR,1570474142,17,-36.62,-64.29,59.0,18.34
324,kem,88,UG,1570474199,81,2.68,33.77,70.61,3.96
325,garoua,20,CM,1570474199,88,9.31,13.39,78.8,3.36
326,pa sang,20,TH,1570474200,88,18.53,98.94,75.2,0.87
327,lerwick,40,GB,1570474064,87,60.15,-1.15,53.6,17.22
328,alta floresta,75,BR,1570474200,49,-9.87,-56.08,93.2,5.82
329,marsh harbour,100,BS,1570474200,78,26.54,-77.06,81.77,14.92
330,puerto baquerizo moreno,40,EC,1570474200,73,-0.9,-89.6,71.6,18.34
331,bilibino,100,RU,1570474201,96,68.06,166.44,9.05,3.98
332,behshahr,40,IR,1570474201,94,36.69,53.54,71.6,4.7
333,westport,75,US,1570474202,69,41.14,-73.36,77.0,12.75
334,kutum,33,SD,1570474202,49,14.2,24.66,79.43,5.3
335,berlevag,75,NO,1570474202,74,70.86,29.09,39.2,2.24
336,filadelfia,99,PY,1570474202,39,-22.35,-60.04,84.47,4.97
337,mabai,16,CN,1570474203,92,23.01,104.4,60.17,2.35
338,maracacume,64,BR,1570474203,64,-2.04,-45.96,87.35,4.88
339,baft,77,IR,1570474203,60,29.23,56.61,52.61,2.73
340,san andres,70,PH,1570474171,87,13.32,122.68,76.55,7.02
341,biak,97,ID,1570474204,97,-0.91,122.88,61.25,4.47
342,codrington,17,AU,1570474204,93,-28.95,153.24,69.8,9.17
343,egvekinot,100,RU,1570474204,96,66.32,-179.17,25.79,7.85
344,yuli,45,CN,1570474204,96,24.82,106.77,65.03,1.43
345,humaita,0,AR,1570474205,21,-24.93,-65.37,84.2,10.29
346,kushiro,100,JP,1570474205,91,43.11,144.15,52.43,5.75
347,olga,1,US,1570474205,32,34.11,-118.17,89.01,5.86
348,finote selam,92,ET,1570474206,86,10.7,37.27,59.81,4.5
349,kamyshevatskaya,10,RU,1570474206,60,46.41,37.96,56.57,14.32
350,hermiston,1,US,1570474011,36,45.84,-119.29,72.0,4.7
351,zhigansk,100,RU,1570474206,96,66.77,123.37,28.49,17.63
352,alekseyevsk,100,RU,1570474207,88,57.84,108.35,40.55,9.13
353,kieta,72,PG,1570474207,82,-6.22,155.63,79.97,7.23
354,puerto asis,20,CO,1570474111,62,0.51,-76.5,87.8,3.36
355,puerto maldonado,90,PE,1570474207,334,-12.59,-69.19,33.8,5.82
356,fort nelson,90,CA,1570474208,74,58.81,-122.69,32.0,12.75
357,kenai,1,US,1570474208,74,60.55,-151.26,37.0,3.36
358,luderitz,1,NA,1570474208,77,-26.65,15.16,60.8,21.92
359,santa cruz,14,BR,1570474208,31,-6.22,-36.02,91.67,14.83
360,lokosovo,94,RU,1570474209,72,61.13,74.84,43.97,3.67
361,abonnema,75,NG,1570474209,94,4.71,6.79,77.0,7.92
362,altay,0,CN,1570474209,27,47.83,88.13,46.13,7.23
363,faya,40,SA,1570474209,54,18.39,42.45,77.0,10.29
364,arlit,6,NE,1570474210,11,18.74,7.39,98.69,3.78
365,hamilton,75,CA,1570474210,63,43.26,-79.87,66.0,10.29
366,biltine,69,TD,1570474210,60,14.53,20.93,81.77,23.78
367,shahreza,67,IR,1570474211,52,32.01,51.87,55.13,2.35
368,huarmey,65,PE,1570474211,89,-10.07,-78.15,60.89,13.06
369,lastoursville,100,GA,1570474211,98,-0.81,12.73,71.33,1.5
370,ketchikan,20,US,1570474211,70,55.34,-131.65,46.4,16.11
371,tiarei,40,PF,1570474212,69,-17.53,-149.33,80.6,3.36
372,beyneu,41,KZ,1570474212,39,45.32,55.19,64.31,13.51
373,nizwa,32,OM,1570474212,56,22.93,57.53,77.27,3.4
374,sal rei,40,CV,1570474212,65,16.18,-22.92,82.4,9.17
375,xushan,75,CN,1570474213,77,30.18,121.25,68.0,6.71
376,longyearbyen,75,NO,1570474213,80,78.22,15.63,39.2,8.05
377,nueva concepcion,40,GT,1570474213,66,14.2,-91.3,89.6,9.17
378,sinnamary,1,GF,1570474214,76,5.38,-52.96,83.39,18.21
379,alofi,75,NU,1570474214,68,-19.06,-169.92,71.6,10.29
380,manyana,52,AU,1570474214,100,-35.26,150.51,61.0,6.67
381,atasu,0,KZ,1570474214,34,48.68,71.64,52.97,6.38
382,la ferte-bernard,90,FR,1570474215,82,48.19,0.65,57.2,6.93
383,najran,40,SA,1570474215,21,17.54,44.22,84.2,6.93
384,verkhnyaya inta,92,RU,1570474215,84,65.99,60.32,32.09,10.29
385,yeniseysk,100,RU,1570474215,89,58.45,92.17,44.33,5.01
386,tazmalt,40,DZ,1570474216,56,36.39,4.4,68.0,6.93
387,deep river,40,CA,1570474157,52,46.1,-77.49,64.4,11.39
388,tara,83,JP,1570474216,66,33.0,130.15,71.01,5.01
389,paciran,27,ID,1570474216,80,-6.9,112.33,73.49,4.54
390,lewisporte,75,CA,1570474217,82,49.25,-55.06,57.99,16.11
391,luanda,75,AO,1570474217,88,-8.83,13.24,75.2,11.41
392,inverness,20,GB,1570474217,76,57.48,-4.23,52.0,21.92
393,jinka,100,ET,1570474218,92,5.79,36.57,64.49,5.01
394,richards bay,65,ZA,1570474218,76,-28.77,32.06,73.13,20.11
395,gayeri,33,BF,1570474218,46,12.65,0.49,88.79,6.91
396,skibbereen,40,IE,1570474219,87,51.55,-9.27,53.6,10.29
397,yulara,0,AU,1570474219,37,-25.24,130.99,66.2,8.05
398,carbondale,1,US,1570474079,40,38.82,-95.69,71.6,7.67
399,sanford,40,US,1570474045,60,43.44,-70.77,78.01,10.29
400,igarka,97,RU,1570474219,98,67.47,86.57,31.37,4.76
401,matara,38,BI,1570474220,82,-3.48,29.48,54.41,2.35
402,guasdualito,75,VE,1570474220,66,7.24,-70.73,89.6,2.24
403,sweetwater,1,US,1570474220,26,32.47,-100.41,73.0,13.87
404,los llanos de aridane,75,ES,1570474221,73,28.66,-17.92,73.4,12.75
405,santa maria,75,BR,1570474158,64,-16.02,-48.01,75.99,5.82
406,sorong,100,ID,1570474221,90,-0.86,131.25,76.19,7.45
407,kudahuvadhoo,78,MV,1570474221,73,2.67,72.89,82.67,7.23
408,mulege,0,MX,1570474222,34,26.88,-111.98,91.49,9.64
409,cadiz,90,US,1570474222,87,40.27,-81.0,59.0,5.82
410,santa cruz del sur,65,CU,1570474222,76,20.71,-78.0,85.73,11.61
411,kaihua,19,CN,1570474222,98,29.14,118.41,65.39,1.54
412,ambilobe,0,MG,1570474223,63,-13.19,49.05,76.91,16.02
413,kamien pomorski,75,PL,1570474223,100,53.97,14.77,48.99,2.24
414,lishu,33,CN,1570474223,29,43.31,124.32,42.53,13.44
415,ayan,0,IR,1570474223,38,38.23,44.7,48.83,4.5
416,salalah,20,OM,1570474224,83,17.01,54.1,80.6,4.7
417,aswan,4,EG,1570474224,20,24.09,32.9,90.77,11.92
418,siniscola,20,IT,1570474224,73,40.57,9.69,69.8,8.05
419,puerto escondido,40,MX,1570474225,66,15.86,-97.07,87.8,7.38
420,salina,1,US,1570474225,35,38.84,-97.61,71.01,4.7
421,opuwo,50,NA,1570474225,20,-18.06,13.84,76.55,8.75
422,natal,40,BR,1570474226,62,-5.81,-35.21,84.2,19.46
423,pucara,20,BO,1570474226,18,-21.7,-64.2,84.2,4.7
424,jaszarokszallas,0,HU,1570474226,75,47.64,19.98,44.6,2.33
425,kilimatinde,0,TZ,1570474226,48,-5.75,34.82,73.67,12.68
426,dongli,0,CN,1570474226,83,24.18,117.61,75.2,6.71
427,udachnyy,90,RU,1570474227,92,66.42,112.4,14.0,7.36
428,araripe,19,BR,1570474227,19,-7.21,-40.14,96.53,8.79
429,baturaja,62,ID,1570474228,84,-4.12,104.17,72.23,2.08
430,vostok,80,RU,1570474228,76,46.45,135.83,41.99,4.38
431,sarkand,58,KZ,1570474228,30,45.41,79.91,63.41,3.38
432,barra do garcas,40,BR,1570474228,34,-15.89,-52.26,95.0,6.93
433,high level,90,CA,1570474229,81,58.52,-117.13,32.0,20.8
434,sulam,0,IL,1570474229,79,32.61,35.33,73.99,4.0
435,santo tomas,75,PH,1570474229,100,7.53,125.62,73.4,4.7
436,lumphat,91,KH,1570474229,96,13.5,106.97,72.95,2.62
437,kochi,75,IN,1570474214,88,9.96,76.25,78.8,3.36
438,oktyabrskiy,40,RU,1570474230,69,55.61,37.97,37.4,8.95
439,cravo norte,100,CO,1570474230,81,6.3,-70.2,80.51,6.91
440,sao felix do xingu,78,BR,1570474230,41,-6.64,-51.99,91.85,1.7
441,gao,0,ML,1570474231,18,16.28,-0.04,98.15,3.18
442,carutapera,25,BR,1570474231,62,-1.2,-46.02,85.55,11.83
443,abu samrah,0,SY,1570474231,73,35.3,37.18,66.47,6.35
444,tagusao,95,PH,1570474231,77,9.19,117.81,80.33,4.38
445,thunder bay,75,CA,1570474189,50,48.41,-89.26,55.99,17.22
446,kargil,4,PK,1570474232,63,34.56,76.13,34.97,5.53
447,buzmeyin,0,TM,1570474232,26,38.05,58.21,71.6,2.24
448,puerto quijarro,75,BO,1570474232,65,-19.0,-57.72,82.4,5.82
449,evans,1,US,1570473982,10,40.38,-104.69,69.01,6.93
450,george town,75,MY,1570474232,94,5.42,100.33,78.01,3.29
451,lavrentiya,100,RU,1570474233,99,65.58,-170.99,32.99,15.93
452,conde,44,BR,1570474163,47,-11.81,-37.61,83.93,9.06
453,pamanukan,82,ID,1570474233,69,-6.28,107.82,72.95,1.66
454,blessington,40,IE,1570474233,71,53.17,-6.53,55.4,4.7
455,ambon,90,FR,1570474234,93,47.55,-2.56,61.0,17.22
456,gambela,100,ET,1570474234,83,8.25,34.59,69.53,3.98
457,ahuimanu,90,US,1570474234,88,21.44,-157.84,81.0,3.36
458,sibolga,100,ID,1570474234,83,1.74,98.78,78.53,8.68
459,vanimo,27,PG,1570474235,77,-2.67,141.3,81.95,6.04
460,pitimbu,40,BR,1570474235,58,-7.47,-34.81,82.4,13.87
461,araouane,20,ML,1570474235,13,18.9,-3.53,96.35,6.08
462,zunilito,40,GT,1570474235,66,14.62,-91.52,87.8,9.17
463,asosa,100,ET,1570474236,91,10.07,34.53,66.47,2.84
464,saint-denis,75,FR,1570474236,58,48.94,2.36,59.0,13.87
465,nantucket,1,US,1570474236,73,41.28,-70.1,73.99,17.22
466,penzance,75,GB,1570474236,100,50.12,-5.53,62.01,12.75
467,turukhansk,85,RU,1570474237,98,65.8,87.96,32.27,7.92
468,shimanovsk,0,RU,1570474237,94,52.0,127.67,33.71,7.99
469,sharanga,100,RU,1570474237,93,57.18,46.54,45.95,6.78
470,barkhan,0,PK,1570474237,56,29.9,69.52,67.19,3.31
471,mitu,0,IR,1570474064,35,36.2,46.09,56.93,7.34
472,novovyazniki,100,RU,1570474238,89,56.2,42.16,35.69,13.29
473,huzhou,73,CN,1570474238,58,30.86,120.1,70.0,7.09
474,oneonta,100,US,1570474238,97,42.45,-75.06,57.0,1.79
475,nizhniy tsasuchey,19,RU,1570474239,63,50.52,115.13,30.83,7.65
476,saint-pierre,0,FR,1570474239,93,48.95,4.24,55.4,8.05
477,valdivia,40,CL,1570474239,54,-39.81,-73.25,57.2,11.41
478,porbandar,0,IN,1570474239,72,21.64,69.61,83.75,14.23
479,pundaguitan,87,PH,1570474240,74,6.37,126.17,81.41,3.89
480,poum,90,MK,1570474240,66,41.28,20.71,53.6,2.24
481,komsomolskiy,98,RU,1570474240,92,67.55,63.78,29.03,4.0
482,half moon bay,1,US,1570474240,37,37.46,-122.43,82.0,4.7
483,muros,75,ES,1570474241,83,42.77,-9.06,69.8,1.12
484,paamiut,97,GL,1570474241,79,61.99,-49.67,38.75,9.06
485,becerril,99,CO,1570474241,75,9.7,-73.28,86.27,2.84
486,mahon,40,IE,1570474241,87,51.89,-8.4,55.0,10.29
487,samara,75,RU,1570474242,87,53.2,50.11,44.6,13.42
488,nome,40,US,1570474242,58,30.04,-94.42,89.6,19.46
489,tarn taran,0,IN,1570474242,88,31.46,74.93,75.2,4.18
490,kaeo,0,NZ,1570474243,100,-35.1,173.78,53.01,3.04
491,northam,83,AU,1570474243,59,-31.65,116.67,60.8,17.22
492,saquena,97,PE,1570474244,82,-4.67,-73.52,81.95,4.09
493,bela,8,PK,1570474244,45,26.23,66.31,80.15,6.91
494,curuguaty,90,PY,1570474244,47,-24.47,-55.69,83.93,2.04
495,biu,98,NG,1570474245,76,10.61,12.19,76.37,3.44
496,morehead,75,US,1570474245,87,38.18,-83.43,54.0,10.29
497,alvorada,40,BR,1570474074,57,-30.0,-51.08,81.0,9.17
498,hendek,75,TR,1570474246,77,40.8,30.75,62.6,5.82
499,port augusta,0,AU,1570474246,76,-32.49,137.76,51.8,10.29
500,galesong,45,ID,1570474247,83,-5.32,119.37,73.4,3.36
501,port said,0,EG,1570473972,19,25.34,30.55,85.73,12.97
502,tuensang,100,IN,1570474247,97,26.24,94.81,70.43,2.01
503,sukhobezvodnoye,100,RU,1570474247,95,57.05,44.89,39.47,10.56
504,guangyuan,100,CN,1570474248,79,32.43,105.86,64.99,2.44
505,rio gallegos,40,AR,1570474167,57,-51.62,-69.22,41.0,34.45
506,north platte,1,US,1570474248,30,41.12,-100.77,71.6,11.41
507,le mars,1,US,1570474248,34,42.79,-96.17,71.01,8.05
508,pandan,76,PH,1570474249,80,11.72,122.09,82.31,17.02
509,ciudad bolivar,74,VE,1570474249,45,8.12,-63.55,93.83,6.82
510,pangody,46,RU,1570474249,84,65.85,74.49,31.73,9.33
511,togitsu,20,JP,1570474249,77,32.83,129.83,77.0,13.87
512,kasongo-lunda,100,CD,1570474250,87,-6.48,16.82,72.05,1.97
513,bara,18,NG,1570474250,72,10.41,10.6,78.35,5.1
514,kulhudhuffushi,100,MV,1570474250,77,6.62,73.07,81.95,10.78
515,buraydah,0,SA,1570474250,31,26.33,43.97,91.4,9.17
516,lodja,67,CD,1570474251,85,-3.52,23.6,73.13,2.77
517,puri,17,ID,1570474251,84,-7.54,112.45,72.05,6.76
518,kapit,97,MY,1570474251,99,2.02,112.94,71.69,0.65
519,belmonte,49,PT,1570474252,59,40.36,-7.35,79.0,3.24
520,padang,91,ID,1570474252,87,-0.92,100.36,77.45,14.7
521,kavaratti,51,IN,1570474252,75,10.57,72.64,82.85,8.57
522,edgewater,40,US,1570474069,78,28.99,-80.9,84.99,13.87
523,yumen,100,CN,1570474252,23,40.29,97.04,53.69,20.27
524,caraballeda,40,VE,1570474253,62,10.61,-66.85,89.6,5.82
525,diu,4,IN,1570474253,81,20.71,70.98,77.63,6.24
526,basco,1,US,1570474253,37,40.33,-91.2,72.0,8.05
527,cortez,1,US,1570474253,20,37.35,-108.58,66.2,6.15
528,beloha,0,MG,1570474254,33,-25.17,45.06,80.15,14.36
529,san miguel,0,AR,1570474254,35,-34.54,-58.72,79.0,9.17
530,elizabeth city,90,US,1570474254,65,36.3,-76.22,84.2,8.37
531,cockburn town,40,TC,1570474254,70,21.46,-71.14,86.0,9.17
532,figeac,0,FR,1570474255,71,44.61,2.03,55.0,6.93
533,usinsk,98,RU,1570474255,82,66.0,57.56,32.99,13.47
534,suratgarh,0,IN,1570474255,34,29.32,73.9,78.89,7.87
535,oranjemund,6,ZA,1570474255,88,-28.55,16.43,58.37,14.52
536,luau,97,CD,1570474256,46,-10.7,22.23,79.43,1.14
537,miandrivazo,13,MG,1570474256,57,-19.53,45.46,78.89,3.71
538,pangai,75,TO,1570474256,73,-19.8,-174.35,75.2,17.22
539,balsas,44,BR,1570474257,30,-7.53,-46.04,94.73,3.44
540,asmar,14,AF,1570474257,60,35.03,71.36,50.09,3.85
541,bandundu,100,CD,1570474257,92,-3.32,17.38,74.75,4.14
542,taltal,32,CL,1570473920,56,-25.41,-70.49,61.97,5.93
543,alugan,81,PH,1570474258,96,12.22,125.48,75.29,3.09
544,lapi,92,EE,1570474258,97,57.91,26.99,35.01,4.7
545,batemans bay,100,AU,1570474258,89,-35.71,150.18,52.0,5.99
546,murray bridge,0,AU,1570474258,83,-35.12,139.28,52.0,5.99
547,rongcheng,50,CN,1570474259,67,37.16,122.42,61.97,24.23
548,dryden,1,CA,1570474259,53,49.79,-92.84,51.8,11.41
549,gacko,0,BA,1570474259,42,43.17,18.53,62.6,10.29
